<?xml version="1.0" encoding="UTF-8"?>
<kml xmlns="http://www.opengis.net/kml/2.2">
<Document>
  <name>Airports Map</name>
  <description>Schengen and Non-Schengen Airports</description>
  <Style id="schengen">
    <IconStyle>
      <color>ff00ff00</color>
      <scale>1.3</scale>
    </IconStyle>
    <LabelStyle>
      <scale>0.9</scale>
    </LabelStyle>
  </Style>
  <Style id="nonschengen">
    <IconStyle>
      <color>ff0000ff</color>
      <scale>1.3</scale>
    </IconStyle>
    <LabelStyle>
      <scale>0.9</scale>
    </LabelStyle>
  </Style>
  <Placemark>
    <name>CODE</name>
    <description>Non-Schengen Airport<br/>Lat: 0.0000<br/>Lon: 0.0000</description>
    <styleUrl>#nonschengen</styleUrl>
    <Point>
      <coordinates>0.0,0.0,0</coordinates>
    </Point>
  </Placemark>
  <Placemark>
    <name>BIKF</name>
    <description>Schengen Airport<br/>Lat: 63.9850<br/>Lon: -22.6056</description>
    <styleUrl>#schengen</styleUrl>
    <Point>
      <coordinates>-22.605555555555558,63.985,0</coordinates>
    </Point>
  </Placemark>
  <Placemark>
    <name>CYUL</name>
    <description>Non-Schengen Airport<br/>Lat: 45.4681<br/>Lon: -73.7414</description>
    <styleUrl>#nonschengen</styleUrl>
    <Point>
      <coordinates>-73.74138888888889,45.46805555555556,0</coordinates>
    </Point>
  </Placemark>
  <Placemark>
    <name>CYYZ</name>
    <description>Non-Schengen Airport<br/>Lat: 43.6772<br/>Lon: -79.6306</description>
    <styleUrl>#nonschengen</styleUrl>
    <Point>
      <coordinates>-79.63055555555555,43.67722222222222,0</coordinates>
    </Point>
  </Placemark>
  <Placemark>
    <name>DAAG</name>
    <description>Non-Schengen Airport<br/>Lat: 36.6939<br/>Lon: 3.2144</description>
    <styleUrl>#nonschengen</styleUrl>
    <Point>
      <coordinates>3.2144444444444447,36.693888888888885,0</coordinates>
    </Point>
  </Placemark>
  <Placemark>
    <name>DTTA</name>
    <description>Non-Schengen Airport<br/>Lat: 36.8511<br/>Lon: 10.2269</description>
    <styleUrl>#nonschengen</styleUrl>
    <Point>
      <coordinates>10.226944444444445,36.85111111111111,0</coordinates>
    </Point>
  </Placemark>
  <Placemark>
    <name>EBAW</name>
    <description>Schengen Airport<br/>Lat: 51.1894<br/>Lon: 4.4603</description>
    <styleUrl>#schengen</styleUrl>
    <Point>
      <coordinates>4.460277777777778,51.18944444444444,0</coordinates>
    </Point>
  </Placemark>
  <Placemark>
    <name>LEBL</name>
    <description>Schengen Airport<br/>Lat: 41.4808<br/>Lon: 2.0833</description>
    <styleUrl>#schengen</styleUrl>
    <Point>
      <coordinates>2.0833333333333335,41.48083333333334,0</coordinates>
    </Point>
  </Placemark>
  <Placemark>
    <name>LFPG</name>
    <description>Schengen Airport<br/>Lat: 49.0092<br/>Lon: 2.4147</description>
    <styleUrl>#schengen</styleUrl>
    <Point>
      <coordinates>2.414722222222222,49.009166666666665,0</coordinates>
    </Point>
  </Placemark>
  <Placemark>
    <name>EGLL</name>
    <description>Non-Schengen Airport<br/>Lat: 51.5000<br/>Lon: -0.4233</description>
    <styleUrl>#nonschengen</styleUrl>
    <Point>
      <coordinates>-0.42333333333333334,51.5,0</coordinates>
    </Point>
  </Placemark>
  <Placemark>
    <name>KJFK</name>
    <description>Non-Schengen Airport<br/>Lat: 40.4744<br/>Lon: -73.7778</description>
    <styleUrl>#nonschengen</styleUrl>
    <Point>
      <coordinates>-73.77777777777777,40.474444444444444,0</coordinates>
    </Point>
  </Placemark>
  <Placemark>
    <name>EDDF</name>
    <description>Schengen Airport<br/>Lat: 50.0333<br/>Lon: 8.5728</description>
    <styleUrl>#schengen</styleUrl>
    <Point>
      <coordinates>8.572777777777777,50.03333333333333,0</coordinates>
    </Point>
  </Placemark>
  <Placemark>
    <name>LIRF</name>
    <description>Schengen Airport<br/>Lat: 41.8347<br/>Lon: 12.3972</description>
    <styleUrl>#schengen</styleUrl>
    <Point>
      <coordinates>12.397222222222222,41.834722222222226,0</coordinates>
    </Point>
  </Placemark>
  <Placemark>
    <name>LPPT</name>
    <description>Schengen Airport<br/>Lat: 38.7636<br/>Lon: -9.1383</description>
    <styleUrl>#schengen</styleUrl>
    <Point>
      <coordinates>-9.138333333333334,38.76361111111111,0</coordinates>
    </Point>
  </Placemark>
</Document>
</kml>
